times, alts, vels, leftVel, rightVel, accels, rollAxisGrav, yawAxisGrav, pitchAxisGrav, rollAxisLin, yawAxisLin, pitchAxisLin, rollAxisGyro, yawAxisGyro, pitchAxisGyro, roll, yaw, pitch, vSPP, encPos, encPosCmd, limit_out, limit_in, encMax, encMin
60575372,24.819,21.088,0.069,0.041,21.047009,0.010,0.100,9.800,-0.030,-0.040,0.070,0.0011,-0.0022,0.0022,255.000,-0.562,0.062,231.409,-6,0,1,1,240,0,60
60576676,24.819,21.089,0.079,0.041,21.047977,0.010,0.100,9.800,-0.090,-0.070,0.080,0.0022,-0.0033,0.0011,255.000,-0.562,0.062,231.409,-6,0,1,1,240,0,60
60578050,25.130,21.090,-0.000,0.041,21.048519,0.010,0.100,9.800,-0.100,0.000,0.000,0.0022,-0.0022,-0.0011,255.000,-0.562,0.062,231.373,-6,0,1,1,240,0,60
60579032,25.130,21.090,0.020,0.041,21.048616,0.010,0.100,9.800,-0.080,0.010,0.020,0.0011,-0.0011,0.0000,255.000,-0.562,0.062,231.373,-6,0,1,1,240,0,60
60580018,25.130,21.090,0.050,0.041,21.048962,0.010,0.100,9.800,0.000,0.010,0.050,0.0033,-0.0022,0.0022,255.000,-0.562,0.062,231.373,-6,0,1,1,240,0,60
60581039,24.868,21.091,0.040,0.041,21.049423,0.010,0.100,9.800,0.020,0.000,0.040,0.0022,-0.0011,0.0000,255.000,-0.562,0.062,231.403,-6,0,1,1,240,0,60
60582222,24.868,21.091,0.040,0.041,21.049894,0.010,0.100,9.800,0.010,-0.030,0.040,0.0022,-0.0011,0.0000,255.000,-0.562,0.062,231.403,-6,0,1,1,240,0,60
60583363,24.868,21.091,-0.010,0.041,21.050062,0.010,0.100,9.800,0.010,-0.040,-0.010,-0.0022,0.0022,0.0000,255.000,-0.562,0.062,231.403,-6,0,1,1,240,0,60
60585007,24.979,21.092,0.060,0.041,21.050465,0.010,0.100,9.800,-0.010,-0.040,0.060,0.0011,0.0022,-0.0033,255.000,-0.562,0.062,231.391,-6,0,1,1,240,0,60
60586238,24.979,21.093,0.099,0.041,21.051443,0.010,0.100,9.800,0.050,-0.070,0.100,0.0000,0.0000,-0.0022,255.000,-0.562,0.062,231.391,-6,0,1,1,240,0,60
60587720,25.006,21.094,0.100,0.041,21.052917,0.010,0.100,9.800,0.000,0.020,0.100,0.0011,0.0011,0.0000,255.000,-0.562,0.062,231.387,-6,0,1,1,240,0,60
60588903,25.067,21.095,0.041,0.041,21.053751,0.010,0.100,9.800,0.010,0.060,0.040,-0.0011,0.0011,-0.0033,255.000,-0.562,0.062,231.380,-6,0,1,1,240,0,60
60590604,25.067,21.096,0.030,0.041,21.054356,0.010,0.100,9.800,-0.030,0.050,0.030,0.0022,0.0011,-0.0022,255.000,-0.562,0.062,231.380,-6,0,1,1,240,0,60
60592107,25.006,21.096,0.049,0.041,21.054955,0.010,0.100,9.800,-0.130,-0.050,0.050,0.0000,0.0000,-0.0022,255.000,-0.562,0.062,231.387,-6,0,1,1,240,0,60
60593363,25.006,21.096,-0.000,0.041,21.055262,0.010,0.100,9.800,-0.100,-0.030,0.000,-0.0033,0.0000,-0.0022,255.000,-0.562,0.062,231.387,-6,0,1,1,240,0,60
60594943,25.144,21.097,0.050,0.041,21.055651,0.010,0.100,9.800,-0.010,-0.030,0.050,-0.0011,0.0000,-0.0033,255.000,-0.562,0.062,231.371,-6,0,1,1,240,0,60
60596233,25.144,0.051,0.080,0.041,0.009477,0.010,0.100,9.800,0.040,0.000,0.080,0.0033,0.0022,-0.0011,255.000,-0.562,0.062,231.371,-6,0,1,1,240,0,60
60597324,25.144,0.051,0.060,0.041,0.009272,0.010,0.100,9.800,0.060,0.010,0.060,0.0000,0.0000,-0.0033,255.000,-0.562,0.062,231.371,-6,0,1,1,240,0,60
60598514,25.075,0.050,-0.030,0.041,0.008910,0.010,0.100,9.800,0.060,0.000,-0.030,0.0000,0.0033,-0.0033,255.000,-0.562,0.062,231.379,-6,0,1,1,240,0,60
60600357,25.075,0.050,0.059,0.041,0.009084,0.010,0.100,9.800,-0.010,-0.050,0.060,0.0011,0.0033,0.0000,255.000,-0.562,0.062,231.379,-6,0,1,1,240,0,60
60601343,25.075,0.051,0.139,0.041,0.009721,0.010,0.100,9.800,-0.040,-0.060,0.140,0.0011,0.0000,0.0022,255.000,-0.562,0.062,231.379,-6,0,1,1,240,0,60
60602876,24.971,0.051,-0.020,0.041,0.010175,0.010,0.100,9.800,-0.020,0.030,-0.020,0.0011,0.0011,0.0000,255.000,-0.562,0.062,231.392,-6,0,1,1,240,0,60
60604189,24.971,0.051,0.051,0.041,0.009906,0.010,0.100,9.800,0.010,0.060,0.050,0.0011,0.0000,-0.0011,255.000,-0.562,0.062,231.392,-6,0,1,1,240,0,60
60605154,24.971,0.052,0.061,0.041,0.010275,0.010,0.100,9.800,0.010,0.060,0.060,-0.0022,-0.0022,-0.0033,255.000,-0.562,0.062,231.392,-6,0,1,1,240,0,60
60606122,24.730,0.052,0.081,0.041,0.010554,0.010,0.100,9.800,0.000,0.070,0.080,-0.0022,0.0011,-0.0033,255.000,-0.562,0.062,231.419,-6,0,1,1,240,0,60
60607113,24.730,0.051,0.010,0.041,0.010025,0.010,0.100,9.800,0.000,-0.020,0.010,-0.0011,-0.0011,0.0000,255.000,-0.562,0.062,231.419,-6,0,1,1,240,0,60
60608210,24.730,0.050,-0.030,0.041,0.008437,0.010,0.100,9.800,-0.030,-0.040,-0.030,-0.0022,-0.0011,-0.0011,255.000,-0.562,0.062,231.419,-6,0,1,1,240,0,60
60609180,24.991,0.049,0.039,0.041,0.007647,0.010,0.100,9.800,-0.040,-0.070,0.040,-0.0022,0.0011,-0.0044,255.000,-0.562,0.062,231.389,-6,0,1,1,240,0,60
60610152,24.991,0.049,0.069,0.041,0.007570,0.010,0.100,9.800,-0.040,-0.060,0.070,0.0000,0.0000,-0.0033,255.000,-0.562,0.062,231.389,-6,0,1,1,240,0,60
60611339,24.991,0.049,0.080,0.041,0.007855,0.010,0.100,9.800,-0.010,-0.030,0.080,-0.0011,0.0022,-0.0022,255.000,-0.562,0.062,231.389,-6,0,1,1,240,0,60
60612486,24.991,-0.105,0.050,-0.113,0.008291,0.010,0.100,9.800,0.000,0.000,0.050,0.0011,-0.0022,0.0000,255.000,-0.562,0.062,231.389,-6,0,1,1,240,0,60
60614120,24.852,-0.247,0.020,-0.256,0.008476,0.010,0.100,9.800,0.010,0.030,0.020,-0.0011,0.0011,-0.0011,255.000,-0.562,0.062,231.405,-6,0,1,1,240,0,60
60615133,24.852,-0.393,0.050,-0.401,0.007996,0.010,0.100,9.800,0.000,0.000,0.050,0.0000,0.0000,0.0011,255.000,-0.562,0.062,231.405,-6,0,1,1,240,0,60
60616353,24.895,-0.363,0.080,-0.371,0.008024,0.010,0.100,9.800,-0.030,0.000,0.080,0.0011,0.0000,0.0011,255.000,-0.562,0.062,231.400,-6,0,1,1,240,0,60
60617839,24.895,-0.323,0.089,-0.332,0.009104,0.010,0.100,9.800,-0.060,-0.040,0.090,-0.0011,-0.0011,-0.0011,255.000,-0.562,0.062,231.400,-6,0,1,1,240,0,60
60619033,24.895,-0.277,0.030,-0.286,0.009544,0.010,0.100,9.800,-0.010,0.000,0.030,0.0011,0.0011,-0.0022,255.000,-0.562,0.062,231.400,-6,0,1,1,240,0,60
60620727,25.108,-0.259,0.080,-0.268,0.009494,0.010,0.100,9.800,0.010,0.000,0.080,-0.0011,0.0000,0.0000,255.000,-0.562,0.062,231.376,-6,0,1,1,240,0,60
60622214,25.108,-0.247,0.080,-0.257,0.009772,0.010,0.100,9.800,0.050,0.040,0.080,0.0022,0.0000,0.0000,255.000,-0.562,0.062,231.376,-6,0,1,1,240,0,60
60623192,25.108,-0.247,-0.020,-0.257,0.009865,0.010,0.100,9.800,0.070,0.010,-0.020,0.0011,0.0000,-0.0033,255.000,-0.562,0.062,231.376,-6,0,1,1,240,0,60
60624374,25.089,-0.202,0.010,-0.212,0.009271,0.010,0.100,9.800,0.010,0.000,0.010,-0.0033,0.0033,0.0000,255.000,-0.562,0.062,231.378,-6,0,1,1,240,0,60
60625905,25.089,-0.159,0.060,-0.169,0.009119,0.010,0.100,9.800,0.000,-0.040,0.060,0.0000,0.0011,0.0000,255.000,-0.562,0.062,231.378,-6,0,1,1,240,0,60
60626960,25.089,-0.105,0.079,-0.114,0.009404,0.010,0.100,9.800,-0.030,-0.040,0.080,0.0022,0.0011,-0.0011,255.000,-0.562,0.062,231.378,-6,0,1,1,240,0,60
60628253,24.971,-0.078,-0.030,-0.087,0.009839,0.010,0.100,9.800,0.000,0.030,-0.030,-0.0022,0.0000,-0.0022,255.000,-0.562,0.062,231.392,-6,0,1,1,240,0,60
60629436,24.971,-0.048,0.000,-0.058,0.009622,0.010,0.100,9.800,0.000,0.020,0.000,0.0011,-0.0011,0.0022,255.000,-0.562,0.062,231.392,-6,0,1,1,240,0,60
60630620,25.062,-0.002,0.090,-0.012,0.009631,0.010,0.100,9.800,0.020,0.040,0.090,-0.0022,0.0000,-0.0022,255.000,-0.562,0.062,231.381,-6,0,1,1,240,0,60
60631601,25.062,0.042,0.070,0.032,0.009533,0.010,0.100,9.800,0.030,0.020,0.070,0.0000,0.0000,0.0011,255.000,-0.562,0.062,231.381,-6,0,1,1,240,0,60
60633443,25.062,0.156,-0.010,0.147,0.009342,0.010,0.100,9.800,0.000,-0.020,-0.010,0.0000,0.0000,-0.0022,255.000,-0.562,0.062,231.381,-6,0,1,1,240,0,60
60634941,25.012,0.245,0.059,0.236,0.009136,0.010,0.100,9.800,-0.030,-0.060,0.060,0.0000,-0.0011,0.0011,255.000,-0.562,0.062,231.387,-6,0,1,1,240,0,60
60636121,25.012,0.340,0.080,0.330,0.009600,0.010,0.100,9.800,-0.030,-0.030,0.080,-0.0022,0.0000,0.0000,255.000,-0.562,0.062,231.387,-6,0,1,1,240,0,60
60637204,25.012,0.402,0.100,0.392,0.009781,0.010,0.100,9.800,-0.020,0.000,0.100,0.0000,0.0000,-0.0011,255.000,-0.562,0.062,231.387,-6,0,1,1,240,0,60
60638562,25.095,0.501,-0.030,0.492,0.008998,0.010,0.100,9.800,0.000,0.040,-0.030,0.0033,-0.0011,0.0022,255.000,-0.562,0.062,231.377,-6,0,1,1,240,0,60
60639877,25.095,0.599,0.030,0.591,0.008291,0.010,0.100,9.800,0.000,0.030,0.030,0.0011,-0.0011,0.0011,255.000,-0.562,0.062,231.377,-6,0,1,1,240,0,60
60641423,25.144,0.666,0.080,0.657,0.008212,0.010,0.100,9.800,-0.010,0.000,0.080,0.0000,0.0000,0.0011,255.000,-0.562,0.062,231.371,-6,0,1,1,240,0,60
60642623,25.144,0.724,0.069,0.716,0.007914,0.010,0.100,9.800,-0.040,-0.070,0.070,0.0022,0.0022,0.0011,255.000,-0.562,0.062,231.371,-6,0,1,1,240,0,60
60644242,25.144,0.776,0.040,0.768,0.008497,0.010,0.100,9.800,0.000,-0.040,0.040,-0.0022,0.0011,0.0000,255.000,-0.562,0.062,231.371,-6,0,1,1,240,0,60
60645240,25.062,0.672,0.080,0.663,0.009153,0.010,0.100,9.800,0.020,0.010,0.080,0.0000,0.0011,-0.0011,255.000,-0.562,0.062,231.381,-6,0,1,1,240,0,60
60646455,25.062,0.560,0.080,0.550,0.009596,0.010,0.100,9.800,0.000,0.040,0.080,0.0011,0.0011,0.0000,255.000,-0.562,0.062,231.381,-6,0,1,1,240,0,60
60647944,25.062,0.438,0.060,0.428,0.009908,0.010,0.100,9.800,0.030,0.030,0.060,0.0000,0.0022,0.0000,255.000,-0.562,0.062,231.381,-6,0,1,1,240,0,60
60649129,25.034,0.419,0.050,0.409,0.010240,0.010,0.100,9.800,-0.010,0.020,0.050,0.0022,0.0011,0.0011,255.000,-0.562,0.062,231.384,-6,0,1,1,240,0,60
60650629,25.034,0.401,0.060,0.390,0.011238,0.010,0.100,9.800,-0.020,-0.030,0.060,0.0011,0.0011,-0.0011,255.000,-0.562,0.062,231.384,-6,0,1,1,240,0,60
60651809,25.034,0.381,0.100,0.369,0.011641,0.010,0.100,9.800,-0.050,-0.030,0.100,0.0000,0.0000,0.0022,255.000,-0.562,0.062,231.384,-6,0,1,1,240,0,60
60653397,24.998,0.342,-0.020,0.331,0.011486,0.010,0.100,9.800,0.000,0.000,-0.020,0.0033,-0.0022,0.0033,255.000,-0.562,0.062,231.388,-6,0,1,1,240,0,60
60654397,24.998,0.235,0.000,0.225,0.010833,0.010,0.100,9.800,0.000,0.000,0.000,0.0000,0.0000,0.0000,255.000,-0.562,0.062,231.388,-6,0,1,1,240,0,60
60655569,25.095,0.169,0.070,0.158,0.010877,0.010,0.100,9.800,0.010,0.020,0.070,-0.0011,-0.0011,-0.0011,255.000,-0.562,0.062,231.377,-6,0,1,1,240,0,60
60656555,25.157,0.145,0.090,0.134,0.010848,0.010,0.100,9.800,0.010,-0.010,0.090,-0.0022,0.0011,-0.0011,255.000,-0.562,0.062,231.370,-6,0,1,1,240,0,60
60658086,25.157,0.113,0.040,0.102,0.010867,0.010,0.100,9.800,-0.020,-0.030,0.040,0.0000,0.0011,0.0000,255.000,-0.562,0.062,231.370,-6,0,1,1,240,0,60
60659215,24.984,-0.008,0.020,-0.019,0.010724,0.010,0.100,9.800,-0.050,-0.040,0.020,-0.0011,0.0033,0.0000,255.000,-0.562,0.062,231.390,-6,0,1,1,240,0,60
60660466,24.984,-0.024,0.080,-0.036,0.011337,0.010,0.100,9.800,-0.020,-0.030,0.080,0.0011,0.0011,0.0000,255.000,-0.562,0.062,231.390,-6,0,1,1,240,0,60
60661444,24.984,-0.038,0.090,-0.049,0.011315,0.010,0.100,9.800,-0.010,0.000,0.090,-0.0011,0.0000,0.0000,255.000,-0.562,0.062,231.390,-6,0,1,1,240,0,60
60662463,24.984,-0.047,0.070,-0.058,0.011237,0.010,0.100,9.800,0.000,0.030,0.070,0.0011,0.0000,-0.0022,255.000,-0.562,0.062,231.390,-6,0,1,1,240,0,60
60663869,24.923,-0.090,-0.020,-0.101,0.010714,0.010,0.100,9.800,0.000,0.030,-0.020,-0.0022,0.0000,-0.0022,255.000,-0.562,0.062,231.397,-6,0,1,1,240,0,60
60665143,24.923,-0.128,0.070,-0.138,0.010437,0.010,0.100,9.800,0.010,0.010,0.070,0.0000,0.0022,-0.0022,255.000,-0.562,0.062,231.397,-6,0,1,1,240,0,60
60666276,24.950,-0.148,0.110,-0.159,0.010480,0.010,0.100,9.800,0.010,-0.010,0.110,-0.0011,0.0011,0.0011,255.000,-0.562,0.062,231.394,-6,0,1,1,240,0,60
60667513,24.887,-0.254,0.110,-0.265,0.010791,0.010,0.100,9.800,0.000,-0.010,0.110,0.0000,-0.0011,0.0000,255.000,-0.562,0.062,231.401,-6,0,1,1,240,0,60
60668598,24.887,-0.360,-0.030,-0.371,0.010570,0.010,0.100,9.800,0.010,-0.030,-0.030,-0.0011,0.0011,0.0000,255.000,-0.562,0.062,231.401,-6,0,1,1,240,0,60
60669810,24.887,-0.418,0.050,-0.428,0.009866,0.010,0.100,9.800,0.000,0.000,0.050,0.0022,0.0022,-0.0011,255.000,-0.562,0.062,231.401,-6,0,1,1,240,0,60
60671466,25.157,-0.342,0.060,-0.352,0.009838,0.010,0.100,9.800,0.000,0.020,0.060,0.0000,-0.0011,0.0000,255.000,-0.562,0.062,231.370,-6,0,1,1,240,0,60
60672644,25.157,-0.267,0.030,-0.277,0.009740,0.010,0.100,9.800,-0.010,0.030,0.030,-0.0011,-0.0011,0.0011,255.000,-0.562,0.062,231.370,-6,0,1,1,240,0,60
60674207,24.840,-0.373,0.010,-0.384,0.010153,0.010,0.100,9.800,-0.030,-0.010,0.010,-0.0022,0.0000,0.0000,255.000,-0.562,0.062,231.407,-6,0,1,1,240,0,60
60675294,24.840,-0.475,0.060,-0.485,0.010121,0.010,0.100,9.800,-0.020,-0.010,0.060,-0.0022,0.0000,-0.0011,255.000,-0.562,0.062,231.407,-6,0,1,1,240,0,60
60676447,24.840,-0.573,0.090,-0.583,0.010192,0.010,0.100,9.800,0.000,-0.030,0.090,-0.0011,0.0000,-0.0011,255.000,-0.562,0.062,231.407,-6,0,1,1,240,0,60
60677414,24.951,-0.568,0.060,-0.578,0.009923,0.010,0.100,9.800,0.000,-0.030,0.060,0.0022,0.0000,0.0022,255.000,-0.562,0.062,231.394,-6,0,1,1,240,0,60
60678377,24.951,-0.560,-0.010,-0.570,0.009826,0.010,0.100,9.800,0.010,-0.030,-0.010,0.0000,0.0000,0.0022,255.000,-0.562,0.062,231.394,-6,0,1,1,240,0,60
60679565,24.951,-0.520,0.000,-0.529,0.009146,0.010,0.100,9.800,0.000,0.000,0.000,-0.0011,-0.0011,0.0000,255.000,-0.562,0.062,231.394,-6,0,1,1,240,0,60
60680661,24.868,-0.514,0.050,-0.522,0.008590,0.010,0.100,9.800,-0.010,0.010,0.050,-0.0022,0.0022,0.0000,255.000,-0.562,0.062,231.403,-6,0,1,1,240,0,60
60681647,24.868,-0.497,0.100,-0.506,0.008514,0.010,0.100,9.800,-0.030,0.010,0.100,0.0000,-0.0011,0.0033,255.000,-0.562,0.062,231.403,-6,0,1,1,240,0,60
60682844,24.868,-0.515,0.070,-0.525,0.009175,0.010,0.100,9.800,-0.040,0.000,0.070,-0.0022,0.0000,0.0022,255.000,-0.562,0.062,231.403,-6,0,1,1,240,0,60
60684683,24.722,-0.600,0.040,-0.610,0.009865,0.010,0.100,9.800,-0.010,0.010,0.040,-0.0011,0.0011,0.0011,255.000,-0.562,0.062,231.420,-6,0,1,1,240,0,60
60686224,24.722,-0.672,0.100,-0.682,0.009923,0.010,0.100,9.800,0.000,-0.020,0.100,0.0011,-0.0022,0.0033,255.000,-0.562,0.062,231.420,-6,0,1,1,240,0,60
60687334,24.722,-0.749,0.100,-0.759,0.009676,0.010,0.100,9.800,0.010,0.000,0.100,0.0000,0.0022,-0.0011,255.000,-0.562,0.062,231.420,-6,0,1,1,240,0,60
60688576,24.882,-0.732,-0.030,-0.742,0.009678,0.010,0.100,9.800,0.050,0.000,-0.030,0.0022,0.0011,-0.0011,255.000,-0.562,0.062,231.402,-6,0,1,1,240,0,60
60689636,24.882,-0.712,0.000,-0.722,0.009402,0.010,0.100,9.800,0.020,0.040,0.000,0.0011,0.0000,-0.0011,255.000,-0.562,0.062,231.402,-6,0,1,1,240,0,60
60690788,24.882,-0.705,0.050,-0.713,0.008782,0.010,0.100,9.800,0.010,0.020,0.050,0.0011,0.0022,-0.0011,255.000,-0.562,0.062,231.402,-6,0,1,1,240,0,60
60691773,24.819,-0.726,0.090,-0.735,0.008938,0.010,0.100,9.800,-0.040,0.000,0.090,-0.0033,0.0022,0.0000,255.000,-0.562,0.062,231.409,-6,0,1,1,240,0,60
60693608,24.819,-0.688,-0.040,-0.697,0.009082,0.010,0.100,9.800,-0.030,0.000,-0.040,0.0011,0.0000,-0.0011,255.000,-0.562,0.062,231.409,-6,0,1,1,240,0,60
60695107,25.034,-0.498,0.040,-0.507,0.008703,0.010,0.100,9.800,-0.020,0.000,0.040,0.0000,-0.0011,0.0000,255.000,-0.562,0.062,231.384,-6,0,1,1,240,0,60
60696317,25.034,-0.308,0.080,-0.316,0.008566,0.010,0.100,9.800,0.000,0.010,0.080,0.0000,0.0011,0.0000,255.000,-0.562,0.062,231.384,-6,0,1,1,240,0,60
60698164,25.034,-0.201,0.080,-0.211,0.009323,0.010,0.100,9.800,0.020,0.010,0.080,-0.0022,-0.0011,0.0044,255.000,-0.562,0.062,231.384,-6,0,1,1,240,0,60
60699342,25.053,-0.090,0.030,-0.100,0.009733,0.010,0.100,9.800,-0.010,-0.030,0.030,-0.0033,0.0000,0.0000,255.000,-0.562,0.062,231.382,-6,0,1,1,240,0,60
60700417,25.053,0.016,0.059,0.006,0.010272,0.010,0.100,9.800,0.000,-0.050,0.060,-0.0011,0.0000,0.0000,255.000,-0.562,0.062,231.382,-6,0,1,1,240,0,60
60701671,25.053,0.119,0.069,0.108,0.010807,0.010,0.100,9.800,0.000,-0.050,0.070,0.0022,0.0000,0.0011,255.000,-0.562,0.062,231.382,-6,0,1,1,240,0,60
60702809,24.805,0.066,0.070,0.055,0.010856,0.010,0.100,9.800,-0.010,-0.030,0.070,-0.0011,-0.0011,0.0000,255.000,-0.562,0.062,231.411,-6,0,1,1,240,0,60
60704478,24.805,0.016,0.050,0.005,0.010842,0.010,0.100,9.800,0.000,0.030,0.050,0.0022,0.0011,0.0033,255.000,-0.562,0.062,231.411,-6,0,1,1,240,0,60
60705479,24.805,-0.016,0.050,-0.026,0.010332,0.010,0.100,9.800,-0.010,0.020,0.050,0.0022,0.0000,0.0011,255.000,-0.562,0.062,231.411,-6,0,1,1,240,0,60
60706689,25.019,0.030,0.070,0.020,0.009982,0.010,0.100,9.800,-0.030,0.010,0.070,-0.0033,-0.0011,0.0011,255.000,-0.562,0.062,231.386,-6,0,1,1,240,0,60
60708154,25.019,0.071,0.050,0.061,0.009750,0.010,0.100,9.800,-0.020,0.000,0.050,0.0033,-0.0011,-0.0022,255.000,-0.562,0.062,231.386,-6,0,1,1,240,0,60
60709343,25.005,0.100,0.010,0.091,0.009673,0.010,0.100,9.800,0.000,-0.010,0.010,-0.0011,0.0000,0.0000,255.000,-0.562,0.062,231.388,-6,0,1,1,240,0,60
60710940,25.005,0.259,0.070,0.248,0.010464,0.010,0.100,9.800,-0.010,-0.020,0.070,0.0000,-0.0011,-0.0011,255.000,-0.562,0.062,231.388,-6,0,1,1,240,0,60
60711907,25.005,0.420,0.070,0.409,0.010848,0.010,0.100,9.800,0.010,-0.010,0.070,-0.0011,0.0000,0.0000,255.000,-0.562,0.062,231.388,-6,0,1,1,240,0,60
60713538,24.964,0.409,-0.020,0.398,0.010566,0.010,0.100,9.800,0.040,0.000,-0.020,-0.0011,0.0000,0.0000,255.000,-0.562,0.062,231.392,-6,0,1,1,240,0,60
60714701,24.964,0.395,0.030,0.385,0.010166,0.010,0.100,9.800,0.010,0.000,0.030,0.0000,-0.0011,0.0011,255.000,-0.562,0.062,231.392,-6,0,1,1,240,0,60
60716246,24.868,0.333,0.050,0.322,0.010785,0.010,0.100,9.800,0.020,0.000,0.050,0.0000,0.0022,-0.0022,255.000,-0.562,0.062,231.403,-6,0,1,1,240,0,60
60717345,24.744,0.267,0.100,0.256,0.010881,0.010,0.100,9.800,0.000,-0.020,0.100,-0.0011,0.0011,-0.0022,255.000,-0.562,0.062,231.418,-6,0,1,1,240,0,60
60718459,24.744,0.209,-0.010,0.199,0.009903,0.010,0.100,9.800,0.000,0.010,-0.010,0.0022,0.0000,0.0011,255.000,-0.562,0.062,231.418,-6,0,1,1,240,0,60
60720131,24.681,0.128,0.010,0.118,0.009257,0.010,0.100,9.800,0.000,0.000,0.010,-0.0011,0.0022,-0.0022,255.000,-0.562,0.062,231.425,-6,0,1,1,240,0,60
60721718,24.681,0.015,0.110,0.005,0.009733,0.010,0.100,9.800,0.000,0.020,0.110,0.0000,0.0000,-0.0011,255.000,-0.562,0.062,231.425,-6,0,1,1,240,0,60
60722814,24.681,-0.092,0.020,-0.101,0.009636,0.010,0.100,9.800,0.030,0.000,0.020,-0.0022,-0.0011,-0.0011,255.000,-0.562,0.062,231.425,-6,0,1,1,240,0,60
60724602,24.971,-0.058,0.040,-0.068,0.009382,0.010,0.100,9.800,0.030,0.000,0.040,-0.0011,-0.0011,-0.0011,255.000,-0.562,0.062,231.392,-6,0,1,1,240,0,60
60725585,24.971,-0.099,0.050,-0.108,0.008822,0.010,0.100,9.800,0.020,0.000,0.050,-0.0011,0.0011,-0.0022,255.000,-0.562,0.062,231.392,-6,0,1,1,240,0,60
60726591,24.971,-0.147,0.090,-0.156,0.009025,0.010,0.100,9.800,0.000,-0.010,0.090,0.0011,0.0000,-0.0022,255.000,-0.562,0.062,231.392,-6,0,1,1,240,0,60
60727574,24.716,-0.317,0.070,-0.326,0.009085,0.010,0.100,9.800,-0.030,0.000,0.070,0.0000,-0.0011,0.0000,255.000,-0.562,0.062,231.421,-6,0,1,1,240,0,60
60728770,24.716,-0.412,-0.010,-0.420,0.008565,0.010,0.100,9.800,-0.010,0.010,-0.010,-0.0011,0.0000,0.0011,255.000,-0.562,0.062,231.421,-6,0,1,1,240,0,60
60729907,24.716,-0.503,0.010,-0.511,0.008209,0.010,0.100,9.800,-0.030,0.000,0.010,0.0011,0.0000,0.0022,255.000,-0.562,0.062,231.421,-6,0,1,1,240,0,60
60731586,24.826,-0.540,0.090,-0.549,0.008410,0.010,0.100,9.800,-0.030,0.000,0.090,0.0022,0.0000,0.0000,255.000,-0.562,0.062,231.408,-6,0,1,1,240,0,60
60732946,24.826,-0.609,0.100,-0.618,0.009025,0.010,0.100,9.800,-0.010,0.000,0.100,0.0000,0.0011,-0.0022,255.000,-0.562,0.062,231.408,-6,0,1,1,240,0,60
60734249,24.840,-0.670,-0.000,-0.679,0.009269,0.010,0.100,9.800,-0.030,-0.020,0.000,-0.0022,-0.0011,0.0000,255.000,-0.562,0.062,231.407,-6,0,1,1,240,0,60
60735786,24.840,-0.621,0.060,-0.631,0.009666,0.010,0.100,9.800,0.000,-0.030,0.060,0.0011,0.0000,-0.0022,255.000,-0.562,0.062,231.407,-6,0,1,1,240,0,60
60736968,24.840,-0.568,0.110,-0.578,0.010049,0.010,0.100,9.800,0.010,-0.030,0.110,0.0000,0.0011,-0.0011,255.000,-0.562,0.062,231.407,-6,0,1,1,240,0,60
60738608,24.915,-0.472,-0.030,-0.482,0.009882,0.010,0.100,9.800,0.000,0.000,-0.030,-0.0011,-0.0011,0.0011,255.000,-0.562,0.062,231.398,-6,0,1,1,240,0,60
60739609,24.915,-0.366,0.020,-0.375,0.009332,0.010,0.100,9.800,0.010,0.010,0.020,-0.0011,0.0000,-0.0011,255.000,-0.562,0.062,231.398,-6,0,1,1,240,0,60
60740614,24.915,-0.256,0.070,-0.266,0.009784,0.010,0.100,9.800,0.000,0.000,0.070,-0.0022,0.0011,0.0000,255.000,-0.562,0.062,231.398,-6,0,1,1,240,0,60
60741812,24.901,-0.148,0.090,-0.157,0.009787,0.010,0.100,9.800,0.000,0.000,0.090,-0.0011,0.0022,0.0000,255.000,-0.562,0.062,231.400,-6,0,1,1,240,0,60
60743279,24.901,-0.157,0.070,-0.167,0.010248,0.010,0.100,9.800,-0.010,0.010,0.070,0.0011,0.0000,0.0033,255.000,-0.562,0.062,231.400,-6,0,1,1,240,0,60
60744468,24.901,-0.169,0.000,-0.179,0.010128,0.010,0.100,9.800,0.000,0.000,0.000,-0.0011,-0.0011,-0.0022,255.000,-0.562,0.062,231.400,-6,0,1,1,240,0,60
60746073,24.804,-0.229,0.070,-0.239,0.010247,0.010,0.100,9.800,0.010,0.000,0.070,-0.0033,0.0011,-0.0011,255.000,-0.562,0.062,231.411,-6,0,1,1,240,0,60
60747039,24.804,-0.182,0.090,-0.192,0.010316,0.010,0.100,9.800,0.020,0.000,0.090,0.0022,0.0011,0.0011,255.000,-0.562,0.062,231.411,-6,0,1,1,240,0,60
60748673,24.826,-0.118,0.000,-0.128,0.010264,0.010,0.100,9.800,0.000,0.000,0.000,0.0022,-0.0022,0.0011,255.000,-0.562,0.062,231.408,-6,0,1,1,240,0,60
60749834,24.826,-0.054,0.010,-0.064,0.009964,0.010,0.100,9.800,0.000,-0.010,0.010,0.0011,-0.0011,0.0000,255.000,-0.562,0.062,231.408,-6,0,1,1,240,0,60
60750944,24.826,0.015,0.070,0.005,0.010405,0.010,0.100,9.800,-0.010,-0.040,0.070,-0.0011,-0.0011,0.0022,255.000,-0.562,0.062,231.408,-6,0,1,1,240,0,60
60751949,24.826,0.091,0.090,0.081,0.010368,0.010,0.100,9.800,-0.020,-0.010,0.090,0.0000,0.0011,0.0000,255.000,-0.562,0.062,231.408,-6,0,1,1,240,0,60
60753515,24.895,0.183,-0.000,0.173,0.009779,0.010,0.100,9.800,-0.040,-0.030,0.000,0.0000,0.0000,0.0022,255.000,-0.562,0.062,231.400,-6,0,1,1,240,0,60
60755123,24.895,0.278,0.020,0.268,0.009286,0.010,0.100,9.800,-0.020,-0.010,0.020,0.0011,-0.0011,0.0011,255.000,-0.562,0.062,231.400,-6,0,1,1,240,0,60
60756782,24.965,0.359,0.100,0.349,0.009824,0.010,0.100,9.800,-0.010,0.000,0.100,0.0011,0.0000,0.0022,255.000,-0.562,0.062,231.392,-6,0,1,1,240,0,60
60757760,24.965,0.374,0.060,0.364,0.009601,0.010,0.100,9.800,-0.010,-0.020,0.060,-0.0011,0.0022,-0.0011,255.000,-0.562,0.062,231.392,-6,0,1,1,240,0,60
60758938,24.965,0.382,-0.030,0.373,0.009122,0.010,0.100,9.800,0.000,-0.020,-0.030,-0.0011,0.0011,-0.0022,255.000,-0.562,0.062,231.392,-6,0,1,1,240,0,60
60760467,24.935,0.338,-0.020,0.329,0.008784,0.010,0.100,9.800,-0.010,-0.030,-0.020,0.0000,0.0000,-0.0011,255.000,-0.562,0.062,231.396,-6,0,1,1,240,0,60
60761621,24.935,0.287,0.100,0.278,0.008788,0.010,0.100,9.800,0.000,-0.020,0.100,0.0011,0.0011,0.0000,255.000,-0.562,0.062,231.396,-6,0,1,1,240,0,60
60762668,24.659,0.100,0.050,0.091,0.008617,0.010,0.100,9.800,0.000,0.010,0.050,0.0022,0.0011,0.0011,255.000,-0.562,0.062,231.428,-6,0,1,1,240,0,60
60763890,24.659,0.054,-0.010,0.046,0.007689,0.010,0.100,9.800,0.010,0.030,-0.010,0.0022,0.0000,0.0022,255.000,-0.562,0.062,231.428,-6,0,1,1,240,0,60
60764995,24.659,0.020,0.050,0.013,0.007498,0.010,0.100,9.800,0.010,0.030,0.050,-0.0011,0.0000,0.0033,255.000,-0.562,0.062,231.428,-6,0,1,1,240,0,60
60766647,25.067,0.186,0.080,0.178,0.008014,0.010,0.100,9.800,0.000,0.020,0.080,-0.0022,0.0011,0.0011,255.000,-0.562,0.062,231.380,-6,0,1,1,240,0,60
60767888,25.067,0.223,0.090,0.215,0.008296,0.010,0.100,9.800,0.020,0.020,0.090,-0.0056,0.0022,0.0000,255.000,-0.562,0.062,231.380,-6,0,1,1,240,0,60
60769461,25.067,0.249,-0.010,0.241,0.008192,0.010,0.100,9.800,0.000,0.000,-0.010,0.0022,-0.0011,-0.0022,255.000,-0.562,0.062,231.380,-6,0,1,1,240,0,60
60770899,24.951,0.209,0.080,0.200,0.008639,0.010,0.100,9.800,0.040,0.010,0.080,0.0000,-0.0011,0.0011,255.000,-0.562,0.062,231.394,-6,0,1,1,240,0,60
60771749,24.951,0.218,0.090,0.209,0.008919,0.010,0.100,9.800,0.000,0.000,0.090,0.0011,0.0011,-0.0011,255.000,-0.562,0.062,231.394,-6,0,1,1,240,0,60
60772760,24.951,0.222,0.040,0.214,0.008776,0.010,0.100,9.800,-0.010,0.000,0.040,0.0011,0.0000,-0.0011,255.000,-0.562,0.062,231.394,-6,0,1,1,240,0,60
60773611,24.887,0.200,-0.040,0.192,0.008075,0.010,0.100,9.800,0.000,0.000,-0.040,0.0000,0.0000,-0.0011,255.000,-0.562,0.062,231.401,-6,0,1,1,240,0,60
60774548,24.887,0.178,0.010,0.170,0.007777,0.010,0.100,9.800,-0.040,0.000,0.010,-0.0022,0.0000,0.0000,255.000,-0.562,0.062,231.401,-6,0,1,1,240,0,60
60775644,24.887,0.153,0.060,0.146,0.007166,0.010,0.100,9.800,-0.050,0.000,0.060,-0.0022,0.0011,-0.0022,255.000,-0.562,0.062,231.401,-6,0,1,1,240,0,60
60776572,24.887,0.164,0.060,0.157,0.006943,0.010,0.100,9.800,-0.050,0.000,0.060,0.0000,0.0000,-0.0011,255.000,-0.562,0.062,231.401,-6,0,1,1,240,0,60
60777472,24.937,0.201,0.120,0.194,0.007577,0.010,0.100,9.800,-0.050,-0.020,0.120,0.0000,-0.0011,-0.0022,255.000,-0.562,0.062,231.395,-6,0,1,1,240,0,60
60778592,24.937,0.239,-0.020,0.231,0.008521,0.010,0.100,9.800,-0.030,-0.010,-0.020,0.0000,0.0000,-0.0011,255.000,-0.562,0.062,231.395,-6,0,1,1,240,0,60
60779548,24.937,0.270,0.020,0.262,0.008063,0.010,0.100,9.800,0.000,0.010,0.020,0.0000,-0.0011,-0.0011,255.000,-0.562,0.062,231.395,-6,0,1,1,240,0,60
60780519,24.937,0.301,0.020,0.293,0.007474,0.010,0.100,9.800,0.000,0.010,0.020,-0.0011,0.0022,-0.0033,255.000,-0.562,0.062,231.395,-6,0,1,1,240,0,60
60781544,24.804,0.271,0.080,0.263,0.007740,0.010,0.100,9.800,0.000,0.010,0.080,-0.0033,0.0011,-0.0011,255.000,-0.562,0.062,231.411,-6,0,1,1,240,0,60
60782627,24.804,0.189,0.100,0.180,0.008490,0.010,0.100,9.800,0.040,-0.020,0.100,-0.0022,0.0000,-0.0011,255.000,-0.562,0.062,231.411,-6,0,1,1,240,0,60
60783578,24.804,0.102,-0.020,0.094,0.007790,0.010,0.100,9.800,0.030,-0.010,-0.020,-0.0011,0.0011,0.0000,255.000,-0.562,0.062,231.411,-6,0,1,1,240,0,60
60784568,24.777,0.011,0.050,0.004,0.006884,0.010,0.100,9.800,0.020,0.020,0.050,0.0000,0.0022,-0.0011,255.000,-0.562,0.062,231.414,-6,0,1,1,240,0,60
60785690,24.777,-0.081,0.060,-0.088,0.006872,0.010,0.100,9.800,0.010,0.010,0.060,-0.0011,0.0000,0.0000,255.000,-0.562,0.062,231.414,-6,0,1,1,240,0,60
60787040,24.777,-0.176,0.080,-0.183,0.007314,0.010,0.100,9.800,-0.020,0.020,0.080,-0.0022,0.0011,0.0011,255.000,-0.562,0.062,231.414,-6,0,1,1,240,0,60
60788104,24.763,-0.281,0.040,-0.289,0.007234,0.010,0.100,9.800,-0.030,0.030,0.040,-0.0022,0.0022,-0.0022,255.000,-0.562,0.062,231.416,-6,0,1,1,240,0,60
60789359,24.763,-0.345,-0.010,-0.352,0.006768,0.010,0.100,9.800,-0.010,0.020,-0.010,-0.0011,-0.0011,0.0000,255.000,-0.562,0.062,231.416,-6,0,1,1,240,0,60
60790825,24.763,-0.403,0.060,-0.411,0.007135,0.010,0.100,9.800,0.000,0.000,0.060,0.0000,0.0011,-0.0022,255.000,-0.562,0.062,231.416,-6,0,1,1,240,0,60
60791696,24.799,-0.393,0.120,-0.401,0.008059,0.010,0.100,9.800,0.000,-0.020,0.120,0.0000,-0.0011,-0.0022,255.000,-0.562,0.062,231.411,-6,0,1,1,240,0,60
60793018,24.799,-0.375,0.090,-0.384,0.009058,0.010,0.100,9.800,0.010,-0.020,0.090,-0.0022,0.0000,0.0022,255.000,-0.562,0.062,231.411,-6,0,1,1,240,0,60
60794152,24.799,-0.352,-0.020,-0.361,0.008897,0.010,0.100,9.800,0.020,-0.020,-0.020,0.0000,-0.0011,-0.0011,255.000,-0.562,0.062,231.411,-6,0,1,1,240,0,60
60795709,24.882,-0.292,0.100,-0.301,0.008709,0.010,0.100,9.800,0.000,-0.010,0.100,0.0011,-0.0011,0.0011,255.000,-0.562,0.062,231.402,-6,0,1,1,240,0,60
60796663,24.882,-0.230,0.100,-0.239,0.009106,0.010,0.100,9.800,0.000,-0.010,0.100,0.0011,0.0011,-0.0011,255.000,-0.562,0.062,231.402,-6,0,1,1,240,0,60
60797738,24.882,-0.336,0.110,-0.346,0.010230,0.010,0.100,9.800,-0.020,0.010,0.110,-0.0011,0.0000,0.0022,255.000,-0.562,0.062,231.402,-6,0,1,1,240,0,60
60798799,25.047,-0.356,-0.000,-0.367,0.010620,0.010,0.100,9.800,-0.020,0.000,0.000,0.0000,0.0011,0.0022,255.000,-0.562,0.062,231.383,-6,0,1,1,240,0,60
60799684,25.047,-0.395,0.030,-0.406,0.010241,0.010,0.100,9.800,-0.020,0.020,0.030,0.0000,0.0011,-0.0011,255.000,-0.562,0.062,231.383,-6,0,1,1,240,0,60
60800652,25.047,-0.199,0.070,-0.209,0.009751,0.010,0.100,9.800,-0.020,0.010,0.070,-0.0011,0.0011,-0.0011,255.000,-0.562,0.062,231.383,-6,0,1,1,240,0,60
60801783,25.047,-0.001,0.080,-0.011,0.010223,0.010,0.100,9.800,-0.020,0.010,0.080,0.0011,0.0011,-0.0011,255.000,-0.562,0.062,231.383,-6,0,1,1,240,0,60
60802701,25.020,0.177,0.020,0.167,0.010531,0.010,0.100,9.800,0.000,0.010,0.020,0.0022,0.0011,0.0011,255.000,-0.562,0.062,231.386,-6,0,1,1,240,0,60
60803655,25.020,0.286,-0.020,0.276,0.009914,0.010,0.100,9.800,0.010,-0.020,-0.020,0.0011,-0.0022,0.0000,255.000,-0.562,0.062,231.386,-6,0,1,1,240,0,60
60804756,25.020,0.392,0.050,0.383,0.009130,0.010,0.100,9.800,0.010,0.000,0.050,0.0000,0.0000,0.0011,255.000,-0.562,0.062,231.386,-6,0,1,1,240,0,60
60805662,24.674,0.309,0.050,0.300,0.008944,0.010,0.100,9.800,0.000,0.010,0.050,0.0011,-0.0011,0.0022,255.000,-0.562,0.062,231.426,-6,0,1,1,240,0,60
60806657,24.674,0.202,0.050,0.193,0.009249,0.010,0.100,9.800,0.000,0.010,0.050,-0.0011,0.0011,0.0011,255.000,-0.562,0.062,231.426,-6,0,1,1,240,0,60
60807692,24.674,0.104,0.060,0.094,0.009451,0.010,0.100,9.800,-0.020,-0.020,0.060,-0.0022,0.0000,0.0000,255.000,-0.562,0.062,231.426,-6,0,1,1,240,0,60
60808653,24.674,0.013,0.060,0.004,0.009241,0.010,0.100,9.800,-0.020,-0.020,0.060,0.0000,-0.0011,0.0000,255.000,-0.562,0.062,231.426,-6,0,1,1,240,0,60
60809641,24.570,-0.126,-0.000,-0.134,0.008154,0.010,0.100,9.800,-0.010,-0.010,0.000,-0.0011,0.0011,-0.0033,255.000,-0.562,0.062,231.438,-6,0,1,1,240,0,60
60810627,24.570,-0.225,0.010,-0.232,0.007807,0.010,0.100,9.800,-0.030,0.000,0.010,0.0000,0.0022,0.0033,255.000,-0.562,0.062,231.438,-6,0,1,1,240,0,60
60811781,24.570,-0.311,0.110,-0.319,0.007877,0.010,0.100,9.800,-0.030,-0.010,0.110,0.0011,0.0022,0.0000,255.000,-0.562,0.062,231.438,-6,0,1,1,240,0,60
60812708,24.791,-0.266,0.080,-0.274,0.007803,0.010,0.100,9.800,0.000,0.000,0.080,-0.0011,0.0011,-0.0022,255.000,-0.562,0.062,231.412,-6,0,1,1,240,0,60
60813681,24.854,-0.182,0.000,-0.189,0.007068,0.010,0.100,9.800,0.000,0.010,0.000,0.0011,0.0022,0.0011,255.000,-0.562,0.062,231.405,-6,0,1,1,240,0,60
60814802,24.854,-0.174,0.050,-0.181,0.006763,0.010,0.100,9.800,0.010,0.000,0.050,0.0000,0.0011,0.0011,255.000,-0.562,0.062,231.405,-6,0,1,1,240,0,60
60815733,24.854,-0.167,0.070,-0.174,0.007189,0.010,0.100,9.800,0.010,0.000,0.070,-0.0022,0.0011,-0.0033,255.000,-0.562,0.062,231.405,-6,0,1,1,240,0,60
60816720,24.786,-0.201,0.070,-0.208,0.007395,0.010,0.100,9.800,0.010,0.000,0.070,-0.0022,0.0022,-0.0022,255.000,-0.562,0.062,231.413,-6,0,1,1,240,0,60
60817670,24.786,-0.253,0.110,-0.260,0.007401,0.010,0.100,9.800,0.010,-0.010,0.110,0.0011,0.0000,-0.0022,255.000,-0.562,0.062,231.413,-6,0,1,1,240,0,60
60818649,24.786,-0.307,0.090,-0.315,0.007918,0.010,0.100,9.800,0.020,0.010,0.090,0.0000,0.0000,-0.0011,255.000,-0.562,0.062,231.413,-6,0,1,1,240,0,60
60819673,24.786,-0.362,-0.020,-0.370,0.008278,0.010,0.100,9.800,0.020,0.010,-0.020,0.0000,0.0000,-0.0011,255.000,-0.562,0.062,231.413,-6,0,1,1,240,0,60
60820687,25.019,-0.293,0.020,-0.301,0.008115,0.010,0.100,9.800,0.000,0.000,0.020,0.0022,0.0000,0.0022,255.000,-0.562,0.062,231.386,-6,0,1,1,240,0,60
60821835,25.019,-0.229,0.090,-0.238,0.008293,0.010,0.100,9.800,0.000,0.030,0.090,0.0011,-0.0011,0.0000,255.000,-0.562,0.062,231.386,-6,0,1,1,240,0,60
60822761,25.019,-0.174,0.060,-0.182,0.008491,0.010,0.100,9.800,-0.020,0.010,0.060,-0.0011,-0.0011,0.0011,255.000,-0.562,0.062,231.386,-6,0,1,1,240,0,60
60823728,24.694,-0.299,-0.000,-0.307,0.008213,0.010,0.100,9.800,-0.010,0.000,0.000,-0.0022,-0.0022,0.0000,255.000,-0.562,0.062,231.424,-6,0,1,1,240,0,60
60824843,24.694,-0.421,0.030,-0.429,0.007806,0.010,0.100,9.800,-0.010,-0.010,0.030,-0.0022,-0.0011,0.0011,255.000,-0.562,0.062,231.424,-6,0,1,1,240,0,60
60825770,24.694,-0.539,0.090,-0.547,0.008064,0.010,0.100,9.800,-0.020,-0.020,0.090,0.0011,-0.0011,0.0000,255.000,-0.562,0.062,231.424,-6,0,1,1,240,0,60
60826869,24.694,-0.594,0.089,-0.603,0.008999,0.010,0.100,9.800,-0.020,-0.060,0.090,0.0022,0.0022,-0.0011,255.000,-0.562,0.062,231.424,-6,0,1,1,240,0,60
60827783,24.620,-0.688,0.110,-0.697,0.009221,0.010,0.100,9.800,0.000,-0.030,0.110,0.0011,0.0011,0.0000,255.000,-0.562,0.062,231.432,-6,0,1,1,240,0,60
60828881,24.620,-0.772,-0.000,-0.781,0.008939,0.010,0.100,9.800,0.000,-0.040,0.000,-0.0011,0.0000,0.0011,255.000,-0.562,0.062,231.432,-6,0,1,1,240,0,60
60829792,24.620,-0.739,0.060,-0.747,0.008820,0.010,0.100,9.800,0.020,-0.020,0.060,0.0000,0.0011,0.0000,255.000,-0.562,0.062,231.432,-6,0,1,1,240,0,60
60830760,24.758,-0.605,0.070,-0.614,0.009167,0.010,0.100,9.800,0.000,-0.020,0.070,-0.0011,0.0033,-0.0022,255.000,-0.562,0.062,231.416,-6,0,1,1,240,0,60
60831886,24.758,-0.459,0.090,-0.469,0.009508,0.010,0.100,9.800,0.000,0.000,0.090,-0.0022,0.0022,-0.0011,255.000,-0.562,0.062,231.416,-6,0,1,1,240,0,60
60832781,24.758,-0.303,0.110,-0.313,0.009708,0.010,0.100,9.800,-0.010,0.000,0.110,-0.0011,0.0000,0.0022,255.000,-0.562,0.062,231.416,-6,0,1,1,240,0,60
60833740,24.758,-0.153,0.110,-0.163,0.009908,0.010,0.100,9.800,-0.010,0.000,0.110,-0.0022,0.0011,-0.0022,255.000,-0.562,0.062,231.416,-6,0,1,1,240,0,60
60835119,24.923,0.110,0.050,0.100,0.010037,0.010,0.100,9.800,-0.010,0.030,0.050,0.0000,0.0011,0.0000,255.000,-0.562,0.062,231.397,-6,0,1,1,240,0,60
60836003,24.923,0.373,0.090,0.363,0.010298,0.010,0.100,9.800,-0.010,0.000,0.090,-0.0011,-0.0022,0.0000,255.000,-0.562,0.062,231.397,-6,0,1,1,240,0,60
60837288,24.923,0.421,0.080,0.409,0.011388,0.010,0.100,9.800,-0.010,0.010,0.080,0.0044,0.0011,0.0000,255.000,-0.562,0.062,231.397,-6,0,1,1,240,0,60
60838389,24.736,0.343,0.030,0.331,0.011360,0.010,0.100,9.800,0.000,0.000,0.030,-0.0011,-0.0022,0.0000,255.000,-0.562,0.062,231.419,-6,0,1,1,240,0,60
60840099,24.736,0.260,0.010,0.249,0.011006,0.010,0.100,9.800,0.010,-0.030,0.010,-0.0011,-0.0011,0.0033,255.000,-0.562,0.062,231.419,-6,0,1,1,240,0,60
60840948,24.736,0.177,0.060,0.166,0.011009,0.010,0.100,9.800,0.010,-0.030,0.060,0.0033,0.0000,-0.0011,255.000,-0.562,0.062,231.419,-6,0,1,1,240,0,60
60841876,24.813,0.077,0.090,0.066,0.011535,0.010,0.100,9.800,0.000,-0.030,0.090,0.0000,0.0000,0.0011,255.000,-0.562,0.062,231.410,-6,0,1,1,240,0,60
60843305,24.813,-0.030,0.090,-0.043,0.012264,0.010,0.100,9.800,0.000,-0.010,0.090,-0.0011,0.0011,-0.0011,255.000,-0.562,0.062,231.410,-6,0,1,1,240,0,60
60844409,24.813,-0.145,-0.020,-0.157,0.011664,0.010,0.100,9.800,-0.040,-0.020,-0.020,-0.0022,0.0022,-0.0011,255.000,-0.562,0.062,231.410,-6,0,1,1,240,0,60
60845938,24.951,-0.050,0.070,-0.061,0.011132,0.010,0.100,9.800,-0.060,0.000,0.070,-0.0011,0.0011,-0.0011,255.000,-0.562,0.062,231.394,-6,0,1,1,240,0,60
60847000,24.951,0.074,0.090,0.062,0.011384,0.010,0.100,9.800,-0.040,0.000,0.090,-0.0022,-0.0011,0.0000,255.000,-0.562,0.062,231.394,-6,0,1,1,240,0,60
60847884,24.951,0.189,0.100,0.177,0.011952,0.010,0.100,9.800,-0.020,0.000,0.100,-0.0011,-0.0011,0.0011,255.000,-0.562,0.062,231.394,-6,0,1,1,240,0,60
60848834,24.758,0.187,-0.030,0.175,0.011656,0.010,0.100,9.800,0.000,0.000,-0.030,0.0000,0.0011,0.0011,255.000,-0.562,0.062,231.416,-6,0,1,1,240,0,60
60850152,24.758,0.148,0.020,0.137,0.010690,0.010,0.100,9.800,0.000,0.000,0.020,0.0022,0.0011,-0.0022,255.000,-0.562,0.062,231.416,-6,0,1,1,240,0,60
60851141,24.758,0.111,0.080,0.101,0.010293,0.010,0.100,9.800,0.020,0.000,0.080,0.0011,-0.0011,0.0011,255.000,-0.562,0.062,231.416,-6,0,1,1,240,0,60
60851991,24.868,0.138,0.080,0.128,0.009919,0.010,0.100,9.800,0.030,0.000,0.080,0.0011,0.0011,0.0000,255.000,-0.562,0.062,231.403,-6,0,1,1,240,0,60
60852899,24.868,0.161,0.020,0.152,0.009268,0.010,0.100,9.800,0.030,0.000,0.020,0.0011,0.0011,-0.0011,255.000,-0.562,0.062,231.403,-6,0,1,1,240,0,60
60853980,24.868,0.314,-0.020,0.305,0.008648,0.010,0.100,9.800,0.000,-0.020,-0.020,0.0011,0.0033,0.0000,255.000,-0.562,0.062,231.403,-6,0,1,1,240,0,60
60855015,24.868,0.470,0.040,0.462,0.007659,0.010,0.100,9.800,0.010,0.000,0.040,-0.0011,-0.0011,0.0011,255.000,-0.562,0.062,231.403,-6,0,1,1,240,0,60
60856337,24.714,0.548,0.050,0.541,0.007648,0.010,0.100,9.800,-0.010,0.010,0.050,-0.0022,0.0022,-0.0022,255.000,-0.562,0.062,231.421,-6,0,1,1,240,0,60
60857184,24.714,0.456,0.090,0.448,0.007904,0.010,0.100,9.800,-0.010,0.030,0.090,-0.0022,0.0011,0.0011,255.000,-0.562,0.062,231.421,-6,0,1,1,240,0,60
60858194,24.714,0.364,0.060,0.356,0.008366,0.010,0.100,9.800,-0.030,0.000,0.060,-0.0022,-0.0011,0.0000,255.000,-0.562,0.062,231.421,-6,0,1,1,240,0,60
60859071,24.714,0.271,-0.010,0.264,0.007894,0.010,0.100,9.800,-0.030,0.010,-0.010,-0.0022,-0.0011,-0.0022,255.000,-0.562,0.062,231.421,-6,0,1,1,240,0,60
60859947,24.832,0.240,-0.000,0.233,0.006569,0.010,0.100,9.800,-0.010,0.000,0.000,0.0000,0.0011,0.0000,255.000,-0.562,0.062,231.408,-6,0,1,1,240,0,60
60860998,24.832,0.161,0.050,0.154,0.006447,0.010,0.100,9.800,0.000,-0.020,0.050,0.0011,-0.0022,0.0022,255.000,-0.562,0.062,231.408,-6,0,1,1,240,0,60
60861913,24.832,0.073,0.110,0.067,0.006795,0.010,0.100,9.800,0.000,0.000,0.110,-0.0022,0.0011,0.0022,255.000,-0.562,0.062,231.408,-6,0,1,1,240,0,60
60862862,24.771,-0.057,0.110,-0.064,0.006992,0.010,0.100,9.800,0.000,0.000,0.110,0.0000,0.0000,0.0000,255.000,-0.562,0.062,231.415,-6,0,1,1,240,0,60
60863840,24.771,-0.112,0.110,-0.119,0.007224,0.010,0.100,9.800,0.010,-0.030,0.110,0.0033,0.0011,0.0011,255.000,-0.562,0.062,231.415,-6,0,1,1,240,0,60
60864954,24.771,-0.168,0.040,-0.176,0.007723,0.010,0.100,9.800,0.000,-0.020,0.040,0.0011,-0.0022,0.0022,255.000,-0.562,0.062,231.415,-6,0,1,1,240,0,60
60865896,24.771,-0.228,0.060,-0.236,0.008258,0.010,0.100,9.800,-0.010,-0.020,0.060,-0.0011,0.0022,0.0000,255.000,-0.562,0.062,231.415,-6,0,1,1,240,0,60
60866895,24.846,-0.250,0.060,-0.259,0.008362,0.010,0.100,9.800,-0.010,-0.020,0.060,0.0000,0.0022,0.0011,255.000,-0.562,0.062,231.406,-6,0,1,1,240,0,60
60867948,24.846,-0.169,0.020,-0.177,0.008101,0.010,0.100,9.800,-0.010,0.010,0.020,0.0011,0.0011,0.0011,255.000,-0.562,0.062,231.406,-6,0,1,1,240,0,60
60868912,24.846,-0.082,-0.010,-0.089,0.007695,0.010,0.100,9.800,-0.030,0.000,-0.010,0.0000,0.0000,0.0011,255.000,-0.562,0.062,231.406,-6,0,1,1,240,0,60
60869896,24.625,-0.115,0.040,-0.123,0.007843,0.010,0.100,9.800,0.000,-0.010,0.040,0.0000,0.0011,-0.0011,255.000,-0.562,0.062,231.431,-6,0,1,1,240,0,60
60871012,24.625,-0.264,0.060,-0.272,0.008297,0.010,0.100,9.800,0.000,0.000,0.060,0.0022,0.0000,0.0022,255.000,-0.562,0.062,231.431,-6,0,1,1,240,0,60
60871957,24.625,-0.408,0.080,-0.416,0.008364,0.010,0.100,9.800,0.030,0.000,0.080,0.0000,-0.0011,0.0011,255.000,-0.562,0.062,231.431,-6,0,1,1,240,0,60
60872926,24.625,-0.551,0.070,-0.560,0.008498,0.010,0.100,9.800,0.020,0.000,0.070,-0.0033,0.0000,-0.0011,255.000,-0.562,0.062,231.431,-6,0,1,1,240,0,60
60873912,24.487,-0.726,-0.010,-0.734,0.008036,0.010,0.100,9.800,0.030,0.000,-0.010,-0.0011,0.0011,-0.0033,255.000,-0.562,0.062,231.447,-6,0,1,1,240,0,60
60875029,24.487,-0.888,-0.000,-0.895,0.007760,0.010,0.100,9.800,0.010,-0.010,0.000,0.0000,-0.0011,0.0000,255.000,-0.562,0.062,231.447,-6,0,1,1,240,0,60
60875952,24.487,-1.037,0.080,-1.045,0.008172,0.010,0.100,9.800,0.000,0.000,0.080,0.0022,0.0000,0.0011,255.000,-0.562,0.062,231.447,-6,0,1,1,240,0,60
60876941,24.543,-1.044,0.080,-1.052,0.008700,0.010,0.100,9.800,0.000,0.000,0.080,0.0011,0.0000,0.0011,255.000,-0.562,0.062,231.441,-6,0,1,1,240,0,60
60877977,24.667,-0.959,0.100,-0.968,0.008904,0.010,0.100,9.800,-0.020,0.000,0.100,-0.0011,0.0011,-0.0022,255.000,-0.562,0.062,231.427,-6,0,1,1,240,0,60
60878949,24.667,-0.863,-0.000,-0.872,0.008343,0.010,0.100,9.800,-0.010,0.000,0.000,0.0000,0.0000,-0.0011,255.000,-0.562,0.062,231.427,-6,0,1,1,240,0,60
60879934,24.667,-0.884,0.050,-0.891,0.007518,0.010,0.100,9.800,-0.020,-0.020,0.050,0.0033,0.0000,0.0011,255.000,-0.562,0.062,231.427,-6,0,1,1,240,0,60
60881056,24.798,-0.815,0.060,-0.823,0.007301,0.010,0.100,9.800,-0.010,0.000,0.060,0.0011,0.0000,0.0011,255.000,-0.562,0.062,231.411,-6,0,1,1,240,0,60
60881997,24.798,-0.749,0.080,-0.757,0.007489,0.010,0.100,9.800,-0.010,0.000,0.080,0.0000,0.0000,0.0000,255.000,-0.562,0.062,231.411,-6,0,1,1,240,0,60
60883066,24.798,-0.614,0.090,-0.621,0.007797,0.010,0.100,9.800,-0.010,-0.020,0.090,0.0000,0.0011,-0.0011,255.000,-0.562,0.062,231.411,-6,0,1,1,240,0,60
60883993,24.798,-0.477,-0.010,-0.485,0.007747,0.010,0.100,9.800,0.000,-0.010,-0.010,0.0000,0.0000,-0.0011,255.000,-0.562,0.062,231.411,-6,0,1,1,240,0,60
60885087,24.564,-0.479,0.040,-0.487,0.007862,0.010,0.100,9.800,0.020,0.000,0.040,-0.0011,0.0000,0.0011,255.000,-0.562,0.062,231.439,-6,0,1,1,240,0,60
60886001,24.564,-0.469,0.040,-0.477,0.008080,0.010,0.100,9.800,0.000,-0.010,0.040,-0.0022,0.0000,0.0022,255.000,-0.562,0.062,231.439,-6,0,1,1,240,0,60
60886991,24.564,-0.545,0.040,-0.552,0.007918,0.010,0.100,9.800,0.000,-0.010,0.040,-0.0022,0.0011,0.0011,255.000,-0.562,0.062,231.439,-6,0,1,1,240,0,60
60888044,24.578,-0.605,0.080,-0.613,0.007888,0.010,0.100,9.800,0.000,0.000,0.080,0.0000,0.0033,0.0011,255.000,-0.562,0.062,231.437,-6,0,1,1,240,0,60
60888977,24.578,-0.661,-0.020,-0.669,0.007438,0.010,0.100,9.800,0.000,-0.010,-0.020,-0.0022,0.0011,0.0022,255.000,-0.562,0.062,231.437,-6,0,1,1,240,0,60
60889953,24.578,-0.712,-0.020,-0.719,0.006947,0.010,0.100,9.800,0.000,-0.010,-0.020,-0.0022,0.0011,0.0000,255.000,-0.562,0.062,231.437,-6,0,1,1,240,0,60
60891044,24.578,-0.682,0.060,-0.689,0.007221,0.010,0.100,9.800,-0.020,0.000,0.060,0.0011,0.0011,0.0000,255.000,-0.562,0.062,231.437,-6,0,1,1,240,0,60
60892418,24.777,-0.517,0.100,-0.525,0.007948,0.010,0.100,9.800,-0.020,0.000,0.100,-0.0011,0.0011,-0.0022,255.000,-0.562,0.062,231.414,-6,0,1,1,240,0,60
60893430,24.777,-0.352,0.080,-0.360,0.008073,0.010,0.100,9.800,-0.030,0.020,0.080,-0.0022,0.0011,-0.0011,255.000,-0.562,0.062,231.414,-6,0,1,1,240,0,60
60894464,24.777,-0.226,-0.020,-0.233,0.007452,0.010,0.100,9.800,-0.010,0.010,-0.020,0.0000,0.0000,0.0000,255.000,-0.562,0.062,231.414,-6,0,1,1,240,0,60
60895639,24.674,-0.163,0.030,-0.170,0.007026,0.010,0.100,9.800,0.000,0.000,0.030,0.0000,-0.0022,0.0011,255.000,-0.562,0.062,231.426,-6,0,1,1,240,0,60
60897158,24.674,-0.095,0.090,-0.103,0.007690,0.010,0.100,9.800,0.000,-0.020,0.090,0.0000,0.0000,0.0000,255.000,-0.562,0.062,231.426,-6,0,1,1,240,0,60
60898063,24.674,-0.026,0.080,-0.034,0.007841,0.010,0.100,9.800,-0.010,-0.020,0.080,0.0000,-0.0011,0.0011,255.000,-0.562,0.062,231.426,-6,0,1,1,240,0,60
60899487,24.694,0.104,-0.020,0.097,0.007607,0.010,0.100,9.800,0.010,-0.030,-0.020,-0.0022,-0.0011,0.0033,255.000,-0.562,0.062,231.424,-6,0,1,1,240,0,60
60900559,24.694,0.237,0.060,0.230,0.006913,0.010,0.100,9.800,0.000,-0.020,0.060,0.0000,-0.0011,-0.0044,255.000,-0.562,0.062,231.424,-6,0,1,1,240,0,60
60902087,24.758,0.411,0.090,0.404,0.007685,0.010,0.100,9.800,0.000,-0.030,0.090,0.0011,0.0011,-0.0011,255.000,-0.562,0.062,231.416,-6,0,1,1,240,0,60
60903042,24.758,0.454,0.050,0.445,0.008185,0.010,0.100,9.800,-0.010,0.000,0.050,0.0011,0.0022,0.0000,255.000,-0.562,0.062,231.416,-6,0,1,1,240,0,60
60904163,24.758,0.489,-0.040,0.481,0.007877,0.010,0.100,9.800,-0.020,0.000,-0.040,0.0000,0.0000,0.0022,255.000,-0.562,0.062,231.416,-6,0,1,1,240,0,60
60905068,24.758,0.518,0.020,0.511,0.007391,0.010,0.100,9.800,-0.030,-0.010,0.020,0.0022,0.0000,0.0022,255.000,-0.562,0.062,231.416,-6,0,1,1,240,0,60
60906041,24.854,0.598,0.060,0.591,0.007149,0.010,0.100,9.800,-0.030,0.010,0.060,0.0022,0.0022,0.0011,255.000,-0.562,0.062,231.405,-6,0,1,1,240,0,60
60907174,24.854,0.590,0.060,0.583,0.007551,0.010,0.100,9.800,-0.020,0.000,0.060,0.0000,0.0000,0.0011,255.000,-0.562,0.062,231.405,-6,0,1,1,240,0,60
60908083,24.854,0.569,0.090,0.561,0.008427,0.010,0.100,9.800,-0.020,0.000,0.090,0.0011,0.0000,0.0022,255.000,-0.562,0.062,231.405,-6,0,1,1,240,0,60
60909060,24.854,0.535,0.000,0.526,0.008649,0.010,0.100,9.800,-0.010,0.010,0.000,-0.0022,-0.0011,0.0000,255.000,-0.562,0.062,231.405,-6,0,1,1,240,0,60
60910178,25.040,0.620,0.050,0.612,0.007832,0.010,0.100,9.800,0.000,0.000,0.050,-0.0022,0.0000,0.0000,255.000,-0.562,0.062,231.384,-6,0,1,1,240,0,60
60911103,25.040,0.757,0.080,0.749,0.007520,0.010,0.100,9.800,0.000,0.000,0.080,-0.0011,0.0022,0.0000,255.000,-0.562,0.062,231.384,-6,0,1,1,240,0,60
60912197,25.040,0.880,0.060,0.872,0.007974,0.010,0.100,9.800,0.000,0.010,0.060,0.0000,-0.0022,0.0000,255.000,-0.562,0.062,231.384,-6,0,1,1,240,0,60
60913105,24.929,0.932,0.110,0.923,0.008685,0.010,0.100,9.800,0.020,-0.030,0.110,-0.0033,0.0000,0.0022,255.000,-0.562,0.062,231.396,-6,0,1,1,240,0,60
60914199,24.929,1.048,-0.010,1.039,0.008321,0.010,0.100,9.800,0.000,0.000,-0.010,0.0000,0.0000,0.0022,255.000,-0.562,0.062,231.396,-6,0,1,1,240,0,60
60915108,24.929,1.161,0.040,1.153,0.007692,0.010,0.100,9.800,0.010,0.020,0.040,-0.0011,-0.0011,0.0000,255.000,-0.562,0.062,231.396,-6,0,1,1,240,0,60
60916089,24.929,1.272,0.050,1.264,0.007711,0.010,0.100,9.800,0.020,0.000,0.050,0.0022,0.0022,-0.0011,255.000,-0.562,0.062,231.396,-6,0,1,1,240,0,60
60917215,24.854,1.341,0.100,1.332,0.008344,0.010,0.100,9.800,0.000,-0.010,0.100,-0.0011,0.0000,0.0011,255.000,-0.562,0.062,231.405,-6,0,1,1,240,0,60
60918113,24.854,1.272,0.050,1.264,0.007873,0.010,0.100,9.800,0.000,-0.020,0.050,-0.0011,0.0011,0.0022,255.000,-0.562,0.062,231.405,-6,0,1,1,240,0,60
60919072,24.854,1.194,0.050,1.186,0.007686,0.010,0.100,9.800,0.000,-0.020,0.050,-0.0022,0.0022,0.0000,255.000,-0.562,0.062,231.405,-6,0,1,1,240,0,60
60920057,25.103,1.238,-0.010,1.231,0.007824,0.010,0.100,9.800,-0.030,-0.030,-0.010,-0.0022,0.0011,0.0022,255.000,-0.562,0.062,231.376,-6,0,1,1,240,0,60
60921172,25.103,1.273,0.050,1.265,0.008136,0.010,0.100,9.800,-0.020,-0.010,0.050,-0.0011,-0.0011,0.0011,255.000,-0.562,0.062,231.376,-6,0,1,1,240,0,60
60922133,25.103,1.290,0.100,1.281,0.008465,0.010,0.100,9.800,0.000,-0.020,0.100,0.0011,0.0011,0.0000,255.000,-0.562,0.062,231.376,-6,0,1,1,240,0,60
60923093,25.103,1.288,0.100,1.280,0.008741,0.010,0.100,9.800,0.000,-0.020,0.100,-0.0022,-0.0011,0.0000,255.000,-0.562,0.062,231.376,-6,0,1,1,240,0,60
60924212,24.804,1.097,-0.010,1.089,0.008564,0.010,0.100,9.800,0.020,0.000,-0.010,0.0000,-0.0011,0.0022,255.000,-0.562,0.062,231.411,-6,0,1,1,240,0,60
60925144,24.804,1.021,-0.000,1.013,0.008078,0.010,0.100,9.800,0.000,-0.010,0.000,0.0011,0.0000,-0.0011,255.000,-0.562,0.062,231.411,-6,0,1,1,240,0,60
60926115,24.804,0.943,0.060,0.935,0.008088,0.010,0.100,9.800,-0.010,-0.030,0.060,0.0011,-0.0011,0.0011,255.000,-0.562,0.062,231.411,-6,0,1,1,240,0,60
60927252,24.791,0.854,0.120,0.846,0.008503,0.010,0.100,9.800,-0.050,-0.020,0.120,0.0000,0.0011,-0.0011,255.000,-0.562,0.062,231.412,-6,0,1,1,240,0,60
60928165,24.791,0.692,0.110,0.684,0.008785,0.010,0.100,9.800,-0.070,0.000,0.110,-0.0011,0.0011,0.0000,255.000,-0.562,0.062,231.412,-6,0,1,1,240,0,60
60929127,24.791,0.522,0.040,0.513,0.008737,0.010,0.100,9.800,-0.060,0.000,0.040,0.0000,0.0022,-0.0011,255.000,-0.562,0.062,231.412,-6,0,1,1,240,0,60
60930117,24.791,0.343,0.040,0.334,0.008585,0.010,0.100,9.800,-0.060,0.000,0.040,0.0000,-0.0011,0.0000,255.000,-0.562,0.062,231.412,-6,0,1,1,240,0,60
60931248,24.956,0.271,0.080,0.262,0.009126,0.010,0.100,9.800,-0.030,0.000,0.080,-0.0022,0.0011,0.0000,255.000,-0.562,0.062,231.393,-6,0,1,1,240,0,60
60932196,24.956,0.187,0.080,0.178,0.009442,0.010,0.100,9.800,0.000,0.010,0.080,-0.0033,0.0000,-0.0022,255.000,-0.562,0.062,231.393,-6,0,1,1,240,0,60
60933154,24.956,0.135,0.040,0.126,0.009171,0.010,0.100,9.800,0.050,0.000,0.040,0.0000,-0.0011,0.0000,255.000,-0.562,0.062,231.393,-6,0,1,1,240,0,60
60934263,24.763,-0.042,-0.020,-0.050,0.008611,0.010,0.100,9.800,0.030,-0.040,-0.020,-0.0033,0.0011,-0.0022,255.000,-0.562,0.062,231.416,-6,0,1,1,240,0,60
60935189,24.763,-0.217,0.010,-0.225,0.008084,0.010,0.100,9.800,0.000,-0.030,0.010,-0.0011,-0.0011,-0.0011,255.000,-0.562,0.062,231.416,-6,0,1,1,240,0,60
60936155,24.763,-0.394,0.050,-0.402,0.008177,0.010,0.100,9.800,0.000,-0.020,0.050,0.0000,0.0044,-0.0022,255.000,-0.562,0.062,231.416,-6,0,1,1,240,0,60
60937162,24.763,-0.508,0.050,-0.517,0.008456,0.010,0.100,9.800,0.000,-0.020,0.050,0.0011,0.0000,0.0000,255.000,-0.562,0.062,231.416,-6,0,1,1,240,0,60
60938231,24.874,-0.551,0.090,-0.560,0.008488,0.010,0.100,9.800,-0.010,0.010,0.090,-0.0011,0.0011,0.0000,255.000,-0.562,0.062,231.403,-6,0,1,1,240,0,60
60939187,24.874,-0.597,-0.040,-0.605,0.007770,0.010,0.100,9.800,0.000,0.010,-0.040,-0.0033,0.0000,-0.0011,255.000,-0.562,0.062,231.403,-6,0,1,1,240,0,60
60940273,24.874,-0.643,0.000,-0.650,0.007052,0.010,0.100,9.800,0.000,0.010,0.000,-0.0011,0.0022,-0.0011,255.000,-0.562,0.062,231.403,-6,0,1,1,240,0,60
60941326,24.847,-0.585,0.070,-0.593,0.007470,0.010,0.100,9.800,-0.050,0.020,0.070,0.0011,0.0022,-0.0011,255.000,-0.562,0.062,231.406,-6,0,1,1,240,0,60
60942650,24.847,-0.518,0.080,-0.526,0.008171,0.010,0.100,9.800,-0.040,0.010,0.080,0.0011,0.0000,-0.0022,255.000,-0.562,0.062,231.406,-6,0,1,1,240,0,60
60943716,24.847,-0.444,0.110,-0.453,0.008167,0.010,0.100,9.800,-0.040,0.000,0.110,0.0000,0.0000,-0.0022,255.000,-0.562,0.062,231.406,-6,0,1,1,240,0,60
60944984,24.979,-0.352,-0.000,-0.360,0.007815,0.010,0.100,9.800,-0.030,-0.020,0.000,0.0022,-0.0011,0.0000,255.000,-0.562,0.062,231.391,-6,0,1,1,240,0,60
60946409,24.979,-0.260,0.070,-0.267,0.007589,0.010,0.100,9.800,0.030,-0.020,0.070,0.0033,0.0000,-0.0022,255.000,-0.562,0.062,231.391,-6,0,1,1,240,0,60
60947288,24.979,-0.173,0.090,-0.181,0.007896,0.010,0.100,9.800,0.000,-0.020,0.090,-0.0011,-0.0011,0.0000,255.000,-0.562,0.062,231.391,-6,0,1,1,240,0,60
60948593,24.813,-0.190,0.100,-0.198,0.008452,0.010,0.100,9.800,0.000,-0.030,0.100,0.0022,0.0011,0.0000,255.000,-0.562,0.062,231.410,-6,0,1,1,240,0,60
60949647,24.813,-0.248,-0.040,-0.256,0.008007,0.010,0.100,9.800,-0.020,-0.040,-0.040,-0.0011,0.0011,-0.0011,255.000,-0.562,0.062,231.410,-6,0,1,1,240,0,60
60950669,24.813,-0.303,0.040,-0.311,0.007430,0.010,0.100,9.800,-0.020,-0.020,0.040,-0.0033,0.0011,-0.0011,255.000,-0.562,0.062,231.410,-6,0,1,1,240,0,60
60951718,24.813,-0.356,0.060,-0.363,0.007844,0.010,0.100,9.800,-0.040,-0.020,0.060,-0.0011,0.0011,-0.0011,255.000,-0.562,0.062,231.410,-6,0,1,1,240,0,60
60952684,24.728,-0.307,0.080,-0.315,0.008566,0.010,0.100,9.800,-0.030,0.000,0.080,-0.0022,0.0000,-0.0022,255.000,-0.562,0.062,231.420,-6,0,1,1,240,0,60
60953750,24.728,-0.245,0.050,-0.254,0.008972,0.010,0.100,9.800,-0.020,0.010,0.050,0.0011,0.0033,-0.0022,255.000,-0.562,0.062,231.420,-6,0,1,1,240,0,60
60955292,24.728,-0.171,0.020,-0.180,0.009013,0.010,0.100,9.800,0.000,0.020,0.020,0.0011,0.0000,-0.0011,255.000,-0.562,0.062,231.420,-6,0,1,1,240,0,60
60956369,24.882,0.005,0.090,-0.004,0.008857,0.010,0.100,9.800,0.050,0.000,0.090,0.0000,0.0000,-0.0011,255.000,-0.562,0.062,231.402,-6,0,1,1,240,0,60
60957295,24.882,0.014,0.120,0.004,0.009591,0.010,0.100,9.800,0.010,0.010,0.120,0.0011,0.0022,0.0000,255.000,-0.562,0.062,231.402,-6,0,1,1,240,0,60
60958240,24.882,0.020,0.090,0.009,0.010798,0.010,0.100,9.800,0.040,0.010,0.090,-0.0022,-0.0022,-0.0033,255.000,-0.562,0.062,231.402,-6,0,1,1,240,0,60
60959234,24.895,0.030,0.090,0.019,0.011321,0.010,0.100,9.800,0.040,0.010,0.090,-0.0011,0.0000,-0.0044,255.000,-0.562,0.062,231.400,-6,0,1,1,240,0,60
60960359,24.895,0.028,0.060,0.017,0.011177,0.010,0.100,9.800,0.040,0.010,0.060,0.0011,0.0000,-0.0011,255.000,-0.562,0.062,231.400,-6,0,1,1,240,0,60
60961287,24.895,0.022,0.070,0.011,0.010767,0.010,0.100,9.800,0.030,0.010,0.070,0.0022,0.0011,-0.0011,255.000,-0.562,0.062,231.400,-6,0,1,1,240,0,60
60962276,24.895,0.012,0.080,0.001,0.010814,0.010,0.100,9.800,0.030,0.010,0.080,-0.0011,0.0011,-0.0022,255.000,-0.562,0.062,231.400,-6,0,1,1,240,0,60
60963375,24.943,0.024,0.090,0.013,0.011254,0.010,0.100,9.800,0.010,0.000,0.090,0.0022,-0.0022,-0.0022,255.000,-0.562,0.062,231.395,-6,0,1,1,240,0,60
60964298,24.943,0.125,-0.020,0.114,0.010873,0.010,0.100,9.800,-0.010,-0.010,-0.020,0.0033,-0.0022,0.0000,255.000,-0.562,0.062,231.395,-6,0,1,1,240,0,60
60965270,24.943,0.226,0.050,0.217,0.009784,0.010,0.100,9.800,0.000,-0.020,0.050,0.0022,0.0000,0.0000,255.000,-0.562,0.062,231.395,-6,0,1,1,240,0,60
60966254,24.723,0.212,0.050,0.203,0.009961,0.010,0.100,9.800,0.000,-0.020,0.050,0.0011,-0.0022,0.0000,255.000,-0.562,0.062,231.420,-6,0,1,1,240,0,60
60967406,24.723,0.093,0.070,0.083,0.010654,0.010,0.100,9.800,-0.040,0.020,0.070,0.0000,0.0000,0.0000,255.000,-0.562,0.062,231.420,-6,0,1,1,240,0,60
60968319,24.723,-0.025,0.090,-0.036,0.010860,0.010,0.100,9.800,-0.030,-0.020,0.090,-0.0022,0.0011,-0.0011,255.000,-0.562,0.062,231.420,-6,0,1,1,240,0,60
60969403,24.723,-0.145,-0.001,-0.156,0.010669,0.010,0.100,9.800,-0.030,-0.070,0.000,0.0011,-0.0033,0.0000,255.000,-0.562,0.062,231.420,-6,0,1,1,240,0,60
60970453,24.929,-0.153,0.009,-0.163,0.010018,0.010,0.100,9.800,0.000,-0.100,0.010,0.0000,0.0011,0.0011,255.000,-0.562,0.062,231.396,-6,0,1,1,240,0,60
60971358,24.929,-0.100,0.049,-0.110,0.009742,0.010,0.100,9.800,0.000,-0.070,0.050,0.0033,0.0000,-0.0011,255.000,-0.562,0.062,231.396,-6,0,1,1,240,0,60
60972326,24.929,-0.047,0.090,-0.057,0.009822,0.010,0.100,9.800,0.060,-0.020,0.090,0.0011,0.0011,-0.0033,255.000,-0.562,0.062,231.396,-6,0,1,1,240,0,60
60973420,24.799,-0.067,0.130,-0.078,0.010047,0.010,0.100,9.800,0.050,0.000,0.130,-0.0011,0.0011,-0.0022,255.000,-0.562,0.062,231.411,-6,0,1,1,240,0,60
60974327,24.799,-0.103,0.020,-0.113,0.009738,0.010,0.100,9.800,0.000,0.020,0.020,-0.0022,0.0022,-0.0011,255.000,-0.562,0.062,231.411,-6,0,1,1,240,0,60
60975288,24.799,-0.138,0.020,-0.148,0.009038,0.010,0.100,9.800,0.000,0.020,0.020,0.0000,0.0011,-0.0011,255.000,-0.562,0.062,231.411,-6,0,1,1,240,0,60
60976278,24.799,-0.172,0.000,-0.181,0.008292,0.010,0.100,9.800,-0.040,0.010,0.000,-0.0011,0.0022,-0.0011,255.000,-0.562,0.062,231.411,-6,0,1,1,240,0,60
60977409,24.745,-0.150,0.120,-0.158,0.008366,0.010,0.100,9.800,-0.080,0.030,0.120,0.0000,0.0033,0.0011,255.000,-0.562,0.062,231.418,-6,0,1,1,240,0,60
60978298,24.745,-0.118,0.120,-0.126,0.008690,0.010,0.100,9.800,-0.080,0.030,0.120,0.0011,0.0011,0.0011,255.000,-0.562,0.062,231.418,-6,0,1,1,240,0,60
60979284,24.745,-0.075,0.170,-0.084,0.009188,0.010,0.100,9.800,-0.070,0.000,0.170,-0.0011,0.0011,0.0000,255.000,-0.562,0.062,231.418,-6,0,1,1,240,0,60
60980418,24.745,-0.131,0.010,-0.141,0.009884,0.010,0.100,9.800,0.000,0.000,0.010,-0.0011,-0.0011,0.0000,255.000,-0.562,0.062,231.418,-6,0,1,1,240,0,60
60981354,25.006,-0.031,0.060,-0.041,0.010068,0.010,0.100,9.800,0.080,0.020,0.060,0.0000,-0.0022,-0.0011,255.000,-0.562,0.062,231.387,-6,0,1,1,240,0,60
60982351,25.006,0.063,0.110,0.052,0.010430,0.010,0.100,9.800,0.120,0.020,0.110,-0.0022,-0.0022,-0.0011,255.000,-0.562,0.062,231.387,-6,0,1,1,240,0,60
60983340,25.006,0.149,0.040,0.139,0.010481,0.010,0.100,9.800,0.110,-0.030,0.040,-0.0011,-0.0022,0.0011,255.000,-0.562,0.062,231.387,-6,0,1,1,240,0,60
60984459,24.653,-0.040,-0.060,-0.050,0.009637,0.010,0.100,9.800,0.050,-0.040,-0.060,0.0000,-0.0022,0.0000,255.000,-0.562,0.062,231.428,-6,0,1,1,240,0,60
60985383,24.653,-0.228,0.009,-0.237,0.008920,0.010,0.100,9.800,0.000,-0.060,0.010,0.0000,0.0033,0.0022,255.000,-0.562,0.062,231.428,-6,0,1,1,240,0,60
60986347,24.653,-0.409,0.059,-0.418,0.009208,0.010,0.100,9.800,-0.040,-0.060,0.060,0.0000,0.0011,0.0022,255.000,-0.562,0.062,231.428,-6,0,1,1,240,0,60
60987486,24.653,-0.488,0.120,-0.498,0.009964,0.010,0.100,9.800,-0.110,0.000,0.120,-0.0011,0.0022,0.0011,255.000,-0.562,0.062,231.428,-6,0,1,1,240,0,60
60988401,24.763,-0.492,0.050,-0.502,0.010066,0.010,0.100,9.800,-0.100,0.010,0.050,0.0011,0.0000,0.0022,255.000,-0.562,0.062,231.416,-6,0,1,1,240,0,60
60989369,24.763,-0.493,-0.040,-0.502,0.008916,0.010,0.100,9.800,-0.070,0.030,-0.040,0.0011,0.0011,0.0022,255.000,-0.562,0.062,231.416,-6,0,1,1,240,0,60
60990490,24.763,-0.480,0.000,-0.488,0.008014,0.010,0.100,9.800,-0.030,0.050,0.000,0.0022,0.0000,0.0011,255.000,-0.562,0.062,231.416,-6,0,1,1,240,0,60
60991400,24.852,-0.407,0.070,-0.415,0.008142,0.010,0.100,9.800,0.030,0.010,0.070,0.0000,-0.0011,-0.0022,255.000,-0.562,0.062,231.405,-6,0,1,1,240,0,60
60992393,24.852,-0.332,0.080,-0.341,0.008786,0.010,0.100,9.800,0.060,0.000,0.080,0.0000,0.0022,-0.0011,255.000,-0.562,0.062,231.405,-6,0,1,1,240,0,60
60993362,24.852,-0.256,0.080,-0.265,0.008882,0.010,0.100,9.800,0.060,0.000,0.080,-0.0011,0.0011,0.0000,255.000,-0.562,0.062,231.405,-6,0,1,1,240,0,60
60994490,24.852,-0.147,-0.000,-0.156,0.008265,0.010,0.100,9.800,0.050,-0.040,0.000,-0.0011,0.0011,0.0011,255.000,-0.562,0.062,231.405,-6,0,1,1,240,0,60
60995420,24.770,-0.085,0.080,-0.092,0.007203,0.010,0.100,9.800,0.050,-0.020,0.080,0.0000,0.0011,-0.0022,255.000,-0.562,0.062,231.415,-6,0,1,1,240,0,60
60996391,24.770,-0.015,0.090,-0.022,0.007010,0.010,0.100,9.800,0.020,-0.020,0.090,-0.0022,0.0011,0.0000,255.000,-0.562,0.062,231.415,-6,0,1,1,240,0,60
60997972,24.770,-0.079,0.080,-0.087,0.008021,0.010,0.100,9.800,0.000,0.000,0.080,-0.0011,-0.0011,0.0011,255.000,-0.562,0.062,231.415,-6,0,1,1,240,0,60
60999475,25.025,0.017,0.000,0.009,0.007773,0.010,0.100,9.800,-0.070,0.050,0.000,-0.0011,-0.0011,-0.0011,255.000,-0.562,0.062,231.385,-6,0,1,1,240,0,60
61000425,25.025,0.097,0.070,0.090,0.007368,0.010,0.100,9.800,-0.080,0.050,0.070,0.0000,0.0000,-0.0011,255.000,-0.562,0.062,231.385,-6,0,1,1,240,0,60
61001511,25.025,0.165,0.090,0.156,0.008356,0.010,0.100,9.800,-0.100,0.030,0.090,-0.0011,-0.0011,0.0000,255.000,-0.562,0.062,231.385,-6,0,1,1,240,0,60
61002442,25.047,0.358,0.089,0.349,0.009424,0.010,0.100,9.800,-0.110,-0.040,0.090,0.0022,-0.0011,-0.0011,255.000,-0.562,0.062,231.383,-6,0,1,1,240,0,60
61003406,25.047,0.544,0.039,0.534,0.009716,0.010,0.100,9.800,-0.080,-0.050,0.040,0.0011,-0.0022,-0.0022,255.000,-0.562,0.062,231.383,-6,0,1,1,240,0,60
61004384,25.047,0.721,0.039,0.712,0.009080,0.010,0.100,9.800,-0.080,-0.050,0.040,-0.0022,-0.0044,0.0011,255.000,-0.562,0.062,231.383,-6,0,1,1,240,0,60
61005838,24.800,0.664,0.009,0.655,0.008660,0.010,0.100,9.800,0.000,-0.070,0.010,0.0000,-0.0022,-0.0022,255.000,-0.562,0.062,231.411,-6,0,1,1,240,0,60
61006821,24.800,0.610,0.050,0.601,0.008900,0.010,0.100,9.800,0.070,-0.020,0.050,-0.0011,-0.0011,-0.0011,255.000,-0.562,0.062,231.411,-6,0,1,1,240,0,60
61007656,24.800,0.559,0.070,0.550,0.009619,0.010,0.100,9.800,0.080,-0.030,0.070,0.0000,0.0000,-0.0011,255.000,-0.562,0.062,231.411,-6,0,1,1,240,0,60
61009038,24.800,0.507,0.080,0.497,0.010332,0.010,0.100,9.800,0.060,-0.020,0.080,0.0011,0.0056,-0.0011,255.000,-0.562,0.062,231.411,-6,0,1,1,240,0,60
61010621,25.228,0.675,0.050,0.664,0.010613,0.010,0.100,9.800,0.000,0.000,0.050,0.0011,0.0033,-0.0022,255.000,-0.562,0.062,231.362,-6,0,1,1,240,0,60
61011509,25.228,0.819,0.050,0.809,0.010282,0.010,0.100,9.800,-0.080,0.010,0.050,0.0022,0.0044,-0.0022,255.000,-0.562,0.062,231.362,-6,0,1,1,240,0,60
61012819,24.935,0.773,0.080,0.762,0.010686,0.010,0.100,9.800,-0.080,0.020,0.080,-0.0011,0.0011,0.0000,255.000,-0.562,0.062,231.396,-6,0,1,1,240,0,60
61013891,24.935,0.721,0.150,0.710,0.011551,0.010,0.100,9.800,-0.070,0.050,0.150,0.0011,0.0011,-0.0011,255.000,-0.562,0.062,231.396,-6,0,1,1,240,0,60
61014936,24.935,0.813,0.000,0.801,0.011512,0.010,0.100,9.800,0.010,0.020,0.000,-0.0022,-0.0033,0.0000,255.000,-0.562,0.062,231.396,-6,0,1,1,240,0,60
61016019,24.935,0.905,0.000,0.895,0.010175,0.010,0.100,9.800,0.040,0.030,0.000,0.0000,0.0011,0.0000,255.000,-0.562,0.062,231.396,-6,0,1,1,240,0,60
61017667,24.819,0.929,0.080,0.919,0.010235,0.010,0.100,9.800,0.110,0.020,0.080,-0.0011,0.0000,-0.0011,255.000,-0.562,0.062,231.409,-6,0,1,1,240,0,60
61018546,24.819,0.767,0.080,0.756,0.010602,0.010,0.100,9.800,0.110,0.010,0.080,-0.0022,0.0000,-0.0011,255.000,-0.562,0.062,231.409,-6,0,1,1,240,0,60
61019499,24.819,0.603,-0.000,0.593,0.010112,0.010,0.100,9.800,0.060,-0.010,0.000,0.0000,-0.0011,0.0022,255.000,-0.562,0.062,231.409,-6,0,1,1,240,0,60
61020602,24.745,0.395,-0.000,0.386,0.009277,0.010,0.100,9.800,0.030,-0.030,0.000,0.0011,0.0000,0.0033,255.000,-0.562,0.062,231.418,-6,0,1,1,240,0,60
61021514,24.745,0.189,0.079,0.180,0.009015,0.010,0.100,9.800,-0.020,-0.040,0.080,0.0011,-0.0022,0.0022,255.000,-0.562,0.062,231.418,-6,0,1,1,240,0,60
61022508,24.745,0.042,0.110,0.033,0.009573,0.010,0.100,9.800,-0.010,-0.020,0.110,0.0011,-0.0022,0.0011,255.000,-0.562,0.062,231.418,-6,0,1,1,240,0,60
61023486,24.901,-0.021,0.110,-0.031,0.010293,0.010,0.100,9.800,-0.050,-0.030,0.110,-0.0011,-0.0022,-0.0011,255.000,-0.562,0.062,231.400,-6,0,1,1,240,0,60
61024602,24.901,-0.089,-0.020,-0.099,0.010502,0.010,0.100,9.800,-0.040,0.010,-0.020,-0.0022,-0.0011,-0.0022,255.000,-0.562,0.062,231.400,-6,0,1,1,240,0,60
61025530,24.901,-0.114,0.010,-0.124,0.009958,0.010,0.100,9.800,-0.030,0.050,0.010,0.0011,0.0000,0.0000,255.000,-0.562,0.062,231.400,-6,0,1,1,240,0,60
